[
	{
		"id": 1,
		"key": "polimirovskaja-even",
		"name": "Полимировская",
		"direction": "чётная",
		"city": "Новополоцк",
		"latitude": 55.503060,
		"longitude": 28.706379
	},
	{
		"id": 2,
		"key": "polimirovskaja-odd",
		"name": "Полимировская",
		"direction": "нечётная",
		"city": "Новополоцк",
		"latitude": 55.503933,
		"longitude": 28.706751
	},
	{
		"id": 3,
		"key": "polimirovskajatwo-odd",
		"name": "Полимировская",
		"direction": "нечётная",
		"city": "Новополоцк",
		"latitude": 55.504372,
		"longitude": 28.706115
	},
	{
		"id": 4,
		"key": "polimirovskaja-final",
		"name": "Полимировская",
		"direction": "конечная",
		"city": "Полоцк",
		"latitude": 55.504390,
		"longitude": 28.707405
	},
	{
		"id": 5,
		"key": "vosmoj-mikrorajon-even",
		"name": "Восьмой микрорайон",
		"direction": "чётная",
		"city": "Новополоцк",
		"latitude": 55.507061,
		"longitude": 28.701739
	},
	{
		"id": 6,
		"key": "vosmoj-mikrorajon-odd",
		"name": "Восьмой микрорайон",
		"direction": "нечётная",
		"city": "Новополоцк",
		"latitude": 55.508325,
		"longitude": 28.700672
	},
	{
		"id": 7,
		"key": "vasilevtsy-even",
		"name": "Василевцы",
		"direction": "чётная",
		"city": "Новополоцк",
		"latitude": 55.510128,
		"longitude": 28.697199
	},
	{
		"id": 8,
		"key": "vasilevtsy-odd",
		"name": "Василевцы",
		"direction": "нечётная",
		"city": "Полоцк",
		"latitude": 55.511225,
		"longitude": 28.696376
	},
	{
		"id": 9,
		"key": "podkasteltsy-even",
		"name": "Подкастельцы",
		"direction": "чётная",
		"city": "Полоцк",
		"latitude": 55.512115,
		"longitude": 28.694212
	},
	{
		"id": 10,
		"key": "podkasteltsy-odd",
		"name": "Подкастельцы",
		"direction": "нечётная",
		"city": "Новополоцк",
		"latitude": 55.513224,
		"longitude": 28.693361
	},
		{
		"id": 11,
		"key": "podkasteltsy-odd",
		"name": "Подкастельцы",
		"direction": "нечётная",
		"city": "Новополоцк",
		"latitude": 55.512144,
		"longitude": 28.692621
	},
	{
		"id": 12,
		"key": "zodiak-even",
		"name": "Торговый центр «Зодиак»",
		"direction": "четная",
		"city": "Новополоцк",
		"latitude": 55.514366,
		"longitude": 28.685898
	},
		{
		"id": 13,
		"key": "zodiak-even",
		"name": "Торговый центр «Зодиак»",
		"direction": "нечётная",
		"city": "Новополоцк",
		"latitude": 55.514838,
		"longitude": 28.687487
	},
		{
		"id": 14,
		"key": "zavod-izmeritel-even",
		"name": "Завод «Измеритель»",
		"direction": "чётная",
		"city": "Полоцк",
		"latitude": 55.516976,
		"longitude": 28.687244
	},
	{
		"id": 15,
		"key": "zavod-izmeritel-odd",
		"name": "Завод «Измеритель»",
		"direction": "нечётная",
		"city": "Новополоцк",
		"latitude": 55.517816,
		"longitude": 28.686675
	},
	{
		"id": 16,
		"key": "gostinitsa-naftan-even",
		"name": "Гостиница «Нафтан»",
		"direction": "чётная",
		"city": "Полоцк",
		"latitude": 55.520697,
		"longitude": 28.68143
	},
	{
		"id": 17,
		"key": "gostinitsa-naftan-odd",
		"name": "Гостиница «Нафтан»",
		"direction": "нечётная",
		"city": "Новополоцк",
		"latitude": 55.521071,
		"longitude": 28.681513
	},
	{
		"id": 18,
		"key": "kinoteatr-minsk-even",
		"name": "Кинотеатр «Минск»",
		"direction": "чётная",
		"city": "Полоцк",
		"latitude": 55.524098,
		"longitude": 28.675887
	},
	{
		"id": 19,
		"key": "kinoteatr-minsk-odd",
		"name": "Кинотеатр «Минск»",
		"direction": "нечётная",
		"city": "Новополоцк",
		"latitude": 55.525157,
		"longitude": 28.674761
	},
	{
		"id": 20,
		"key": "kinoteatr-minsk-even",
		"name": "Музыкальная школа",
		"direction": "чётная",
		"city": "Полоцк",
		"latitude": 55.526909,
		"longitude": 28.671002
	},
	{
		"id": 21,
		"key": "kinoteatr-minsk-odd",
		"name": "Музыкальная школа",
		"direction": "нечётная",
		"city": "Новополоцк",
		"latitude": 55.528312,
		"longitude": 28.668950
	},
	{
		"id": 22,
		"key": "kinoteatr-minsk-even",
		"name": "Комсомольская",
		"direction": "чётная",
		"city": "Полоцк",
		"latitude": 55.530005,
		"longitude": 28.664472
	},
	{
		"id": 23,
		"key": "kinoteatr-minsk-odd",
		"name": "Комсомольская",
		"direction": "нечётная",
		"city": "Новополоцк",
		"latitude": 55.530613,
		"longitude": 28.663963
	},
	{
		"id": 24,
		"key": "magazin-solnechnyy-odd",
		"name": "Магазин Солнечный",
		"direction": "нечётная",
		"city": "Новополоцк",
		"latitude": 55.528927,
		"longitude": 28.655307
	},
	{
		"id": 25,
		"key": "magazin-solnechnyy-even",
		"name": "Магазин Солнечный",
		"direction": "чётная",
		"city": "Новополоцк",
		"latitude": 55.528851,
		"longitude": 28.655678
	},
	{
		"id": 26,
		"key": "kalinina-even",
		"name": "Калинина",
		"direction": "чётная",
		"city": "Новополоцк",
		"latitude": 55.534167,
		"longitude": 28.660789
	},
	{
		"id": 27,
		"key": "kalinina-odd",
		"name": "Калинина",
		"direction": "нечётная",
		"city": "Новополоцк",
		"latitude": 55.534368,
		"longitude": 28.661564
	},
	{
		"id": 28,
		"key": "molodezhnaja-even",
		"name": "Молодёжная",
		"direction": "чётная",
		"city": "Новополоцк",
		"latitude": 55.533559,
		"longitude": 28.653495
	},
	{
		"id": 29,
		"key": "molodezhnaja-odd",
		"name": "Молодёжная",
		"direction": "нечётная",
		"city": "Новополоцк",
		"latitude": 55.533482,
		"longitude": 28.655294
	},
	{
		"id": 30,
		"key": "stroitelnaja-even",
		"name": "Площадь Строителей",
		"direction": "чётная",
		"city": "Новополоцк",
		"latitude": 55.534684,
		"longitude": 28.649215
	},
	{
		"id": 31,
		"key": "gostinitsa-belarus-even",
		"name": "Гостиница «Беларусь»",
		"direction": "чётная",
		"city": "Новополоцк",
		"latitude": 55.536551,
		"longitude": 28.643243
	},
	{
		"id": 32,
		"key": "gostinitsa-belarus-odd",
		"name": "Гостиница «Беларусь»",
		"direction": "нечётная",
		"city": "Новополоцк",
		"latitude": 55.536437,
		"longitude": 28.644208
	},
	{
		"id": 33,
		"key": "kinoteatr-kosmos-odd",
		"name": "Кинотеатр «Космос»",
		"direction": "чётная",
		"city": "Новополоцк",
		"latitude": 55.538760,
		"longitude": 28.638214
	},
	{
		"id": 34,
		"key": "kinoteatr-kosmos-odd",
		"name": "Кинотеатр «Космос»",
		"direction": "нечётная",
		"city": "Новополоцк",
		"latitude": 55.539507,
		"longitude": 28.637219
	},
	{
		"id": 35,
		"key": "zolotaya-niva-odd",
		"name": "Золотая Нива",
		"direction": "чётная",
		"city": "Новополоцк",
		"latitude": 55.540061,
		"longitude": 28.634553
	},
	{
		"id": 36,
		"key": "zolotaya-niva-odd",
		"name": "Золотая Нива",
		"direction": "нечётная",
		"city": "Новополоцк",
		"latitude": 55.540573,
		"longitude": 28.633682
	},
	{
		"id": 37,
		"key": "pervaya-palata-odd",
		"name": "Первая палатка",
		"direction": "чётная",
		"city": "Новополоцк",
		"latitude": 55.542337,
		"longitude": 28.627378
	},
	{
		"id": 38,
		"key": "pervaya-palata-odd",
		"name": "Первая палатка",
		"direction": "нечётная",
		"city": "Новополоцк",
		"latitude": 55.542792,
		"longitude": 28.626648
	},
	{
		"id": 39,
		"key": "gajdara-odd",
		"name": "Гайдара",
		"direction": "чётная",
		"city": "Новополоцк",
		"latitude": 55.539558,
		"longitude": 28.620776
	},
	{
		"id": 40,
		"key": "gajdara-odd",
		"name": "Гайдара",
		"direction": "нечётная",
		"city": "Новополоцк",
		"latitude": 55.540005,
		"longitude": 28.621585
	},
	{
		"id": 41,
		"key": "slobodskaja-odd",
		"name": "Слободская",
		"direction": "чётная",
		"city": "Новополоцк",
		"latitude": 55.536838,
		"longitude": 28.626467
	},
	{
		"id": 42,
		"key": "slobodskaja-odd",
		"name": "Слободская",
		"direction": "нечётная",
		"city": "Новополоцк",
		"latitude": 55.536129,
		"longitude": 28.627960
	},
	{
		"id": 43,
		"key": "magazin-berezka-odd",
		"name": "Магазин «Берёзка»",
		"direction": "чётная",
		"city": "Новополоцк",
		"latitude": 55.537732,
		"longitude": 28.632656
	},
	{
		"id": 44,
		"key": "magazin-berezka-odd",
		"name": "Магазин «Берёзка»",
		"direction": "нечётная",
		"city": "Новополоцк",
		"latitude": 55.538343,
		"longitude": 28.633931
	},
	{
		"id": 45,
		"key": "pgu",
		"name": "Полоцкий государственный университет",
		"direction": "нечётная",
		"city": "Новополоцк",
		"latitude": 55.529571,
		"longitude": 28.649047
	},
	{
		"id": 46,
		"key": "avtovokzal-novopolotsk-odd",
		"name": "Автовокзал",
		"direction": "нечётная",
		"city": "Новополоцк",
		"latitude": 55.532058,
		"longitude": 28.642087
	},
	{
		"id": 47,
		"key": "avtovokzal-novopolotsk-even",
		"name": "Автовокзал",
		"direction": "нечётная",
		"city": "Новополоцк",
		"latitude": 55.531651,
		"longitude": 28.641717
	},
	{
		"id": 48,
		"key": "avtovokzal-novopolotsk-boarding",
		"name": "Автовокзал",
		"direction": "посадка",
		"city": "Новополоцк",
		"latitude": 55.530867,
		"longitude": 28.639989
	},
	{
		"id": 49,
		"key": "avtovokzal-novopolotsk-final",
		"name": "Автовокзал",
		"direction": "конечная",
		"city": "Новополоцк",
		"latitude": 55.531745,
		"longitude": 28.639596
	},
	{
		"id": 50,
		"key": "bolnitsa-even",
		"name": "Больница",
		"direction": "нечётная",
		"city": "Новополоцк",
		"latitude": 55.543312,
		"longitude": 28.620640
	},
	{
		"id": 51,
		"key": "po-trebovaniyu-odd",
		"name": "По требованию",
		"direction": "чётная",
		"city": "Новополоцк",
		"latitude": 55.544589,
		"longitude": 28.612085
	},
	{
		"id": 52,
		"key": "po-trebovaniyu-even",
		"name": "По требованию",
		"direction": "нечётная",
		"city": "Новополоцк",
		"latitude": 55.544745,
		"longitude": 28.612177
	},
	{
		"id": 53,
		"key": "profilaktoriy-bvk-odd",
		"name": "Профилакторий БВК",
		"direction": "чётная",
		"city": "Новополоцк",
		"latitude": 55.547850,
		"longitude": 28.608790
	},
	{
		"id": 54,
		"key": "profilaktoriy-bvk-even",
		"name": "Профилакторий БВК",
		"direction": "нечётная",
		"city": "Новополоцк",
		"latitude": 55.548568,
		"longitude": 28.608470
	},
	{
		"id": 55,
		"key": "shnitki-one-odd",
		"name": "Шнитки-1",
		"direction": "чётная",
		"city": "Новополоцк",
		"latitude": 55.552442,
		"longitude": 28.603310
	},
	{
		"id": 56,
		"key": "shnitki-one-even",
		"name": "Шнитки-1",
		"direction": "нечётная",
		"city": "Новополоцк",
		"latitude": 55.552891,
		"longitude": 28.603240
	},
	{
		"id": 57,
		"key": "shnitki-two-odd",
		"name": "Шнитки-1",
		"direction": "чётная",
		"city": "Новополоцк",
		"latitude": 55.558283,
		"longitude": 28.594982
	},
	{
		"id": 58,
		"key": "shnitki-two-even",
		"name": "Шнитки-1",
		"direction": "нечётная",
		"city": "Новополоцк",
		"latitude": 55.558531,
		"longitude": 28.594298
	},
	{
		"id": 59,
		"key": "vitorzhye-odd",
		"name": "Виторжье",
		"direction": "чётная",
		"city": "Новополоцк",
		"latitude": 55.559501,
		"longitude": 28.581591
	},
	{
		"id": 60,
		"key": "vitorzhye-even",
		"name": "Виторжье",
		"direction": "нечётная",
		"city": "Новополоцк",
		"latitude": 55.559495,
		"longitude": 28.580778
	},
	{
		"id": 61,
		"key": "garazhi-odd",
		"name": "Гаражи",
		"direction": "чётная",
		"city": "Новополоцк",
		"latitude": 55.553799,
		"longitude": 28.569549
	},
	{
		"id": 62,
		"key": "garazhi-even",
		"name": "Гаражи",
		"direction": "нечётная",
		"city": "Новополоцк",
		"latitude": 55.553518,
		"longitude": 28.569065
	},
	{
		"id": 63,
		"key": "zavod-bvk-final",
		"name": "Завод «БВК»",
		"direction": "конечная",
		"city": "Новополоцк",
		"latitude": 55.541381,
		"longitude": 28.563221
	},
	{
		"id": 64,
		"key": "zavod-bvk-start",
		"name": "Завод «БВК»",
		"direction": "старт",
		"city": "Новополоцк",
		"latitude": 55.541094,
		"longitude": 28.564053
	}
]
